{
    "flowers": [
        {
          "id": 1,
          "commonName": "Rose",
          "color": "Red"
        },
        {
          "id": 2,
          "commonName": "Tulip",
          "color": "Yellow"
        },
        {
          "id": 3,
          "commonName": "Daisy",
          "color": "White"
        },
        {
          "id": 4,
          "commonName": "Lily",
          "color": "Pink"
        },
        {
          "id": 5,
          "commonName": "Sunflower",
          "color": "Golden"
        }
    ],
    "retailers": [
        {
            "id": 1,
            "name": "Green Thumb Garden Supplies",
            "address": "123 Flower St.",
            "city": "Springfield",
            "state": "IL",
            "distributorId": 1
        },
        {
            "id": 2,
            "name": "Petals & Blooms Nursery",
            "address": "456 Rose Ave.",
            "city": "Greenfield",
            "state": "TX",
            "distributorId": 2
        },
        {
            "id": 3,
            "name": "Blooming Wonders",
            "address": "789 Floral Blvd.",
            "city": "Fairview",
            "state": "CA",
            "distributorId": 3
        },
        {
            "id": 4,
            "name": "The Flower Hut",
            "address": "101 Orchid Dr.",
            "city": "Lakeside",
            "state": "MI",
            "distributorId": 2
        },
        {
            "id": 5,
            "name": "Wildflower Nursery",
            "address": "202 Daisy Rd.",
            "city": "Pinehill",
            "state": "FL",
            "distributorId": 1
        }
    ],
    "distributors": [
        {
            "id": 1,
            "name": "Flora Supply Co.",
            "address": "100 Petal Lane",
            "city": "Roseville",
            "state": "CA"
        },
        {
            "id": 2,
            "name": "Fresh Blooms Distributors",
            "address": "200 Bloom St.",
            "city": "Tulip City",
            "state": "TX"
        },
        {
            "id": 3,
            "name": "Petal Power Distribution",
            "address": "300 Stem Ave.",
            "city": "Violet Town",
            "state": "NY"
        }
    ],
    "nurseries": [
        {
            "id": 1,
            "name": "Sunny Fields Nursery",
            "location": "Hilltop, NC"
        },
        {
            "id": 2,
            "name": "Whispering Pines Growers",
            "location": "Maplewood, OR"
        },
        {
            "id": 3,
            "name": "Meadow Mist Farms",
            "location": "Riverview, PA"
        },
        {
            "id": 4,
            "name": "Golden Petal Gardens",
            "location": "Suncrest, AZ"
        },
        {
            "id": 5,
            "name": "Everbloom Acres",
            "location": "Willowbend, VT"
        }
    ],
    "nurseryDistributors": [
        {
            "id": 1,
            "nurseryId": 1,
            "distributorId": 1
        },
        {
            "id": 2,
            "nurseryId": 1,
            "distributorId": 2
        },
        {
            "id": 3,
            "nurseryId": 2,
            "distributorId": 2
        },
        {
            "id": 4,
            "nurseryId": 2,
            "distributorId": 3
        },
        {
            "id": 5,
            "nurseryId": 3,
            "distributorId": 3
        },
        {
            "id": 6,
            "nurseryId": 3,
            "distributorId": 1
        },
        {
            "id": 7,
            "nurseryId": 4,
            "distributorId": 1
        },
        {
            "id": 8,
            "nurseryId": 4,
            "distributorId": 2
        },
        {
            "id": 9,
            "nurseryId": 5,
            "distributorId": 1
        },
        {
            "id": 10,
            "nurseryId": 5,
            "distributorId": 3
        }
    ],
    "nurseryFlowers": [
    {
        "id": 1,
        "nurseryId": 1,
        "flowerId": 1
    },
    {
        "id": 2,
        "nurseryId": 1,
        "flowerId": 2
    },
    {
        "id": 3,
        "nurseryId": 2,
        "flowerId": 2
    },
    {
        "id": 4,
        "nurseryId": 2,
        "flowerId": 3
    },
    {
        "id": 5,
        "nurseryId": 3,
        "flowerId": 4
    },
    {
        "id": 6,
        "nurseryId": 3,
        "flowerId": 5
    },
    {
        "id": 7,
        "nurseryId": 4,
        "flowerId": 1
    },
    {
        "id": 8,
        "nurseryId": 4,
        "flowerId": 3
    },
    {
        "id": 9,
        "nurseryId": 5,
        "flowerId": 2
    },
    {
        "id": 10,
        "nurseryId": 5,
        "flowerId": 5
    }
]
}